 
$PMTK011,MTKGPS*08
$PMTK010,001*2E
$PMTK001,314,3*36
$PMTK011,MTKGPS*08
$PMTK010,002*2D
$GNGLL,,,,,225518.011,V,N*6D
$GNRMC,225518.011,V,,,,,0.03,0.00,240220,,,N*5F
$GNVTG,0.00,T,,M,0.03,N,0.06,K,N*29
$GNGLL,4714.742555,N,12226.300575,W,225518.154,A,A*5F
$GNRMC,225518.154,A,4714.742555,N,12226.300575,W,0.06,0.00,240220,,,A*68
$GNVTG,0.00,T,,M,0.06,N,0.12,K,A*26
$GNVTG,0.00,T,,M,0.06,N,0.12,K,A*26
$GNVTG,0.00,T,,M,0.06,N,0.12,K,A*26
$GNVTG,0.00,T,,M,0.06,N,0.12,K,A*26
$GNVTG,0.00,T,,M,0.06,N,0.12,K,A*26
$GNVTG,0.00,T,,M,0.06,N,0.12,K,A*26
$GNVTG,0.00,T,,M,0.06,N,0.12,K,A*26
$GNVTG,0.00,T,,M,0.06,N,0.12,K,A*26
$GNVTG,0.00,T,,M,0.06,N,0.12,K,A*26
$GNGLL,4714.744026,N,12226.298662,W,225520.000,A,A*56
$GNRMC,225520.000,A,4714.744026,N,12226.298662,W,0.23,0.00,240220,,,A*66
$GNVTG,0.00,T,,M,0.23,N,0.43,K,A*25
$GNVTG,0.00,T,,M,0.23,N,0.43,K,A*25
$GNVTG,0.00,T,,M,0.23,N,0.43,K,A*25
$GNVTG,0.00,T,,M,0.23,N,0.43,K,A*25
$GNGLL,4714.748113,N,12226.296747,W,225521.000,A,A*54
$GNRMC,225521.000,A,4714.748113,N,12226.296747,W,0.01,0.00,240220,,,A*64
$GNVTG,0.00,T,,M,0.01,N,0.02,K,A*20
$GNVTG,0.00,T,,M,0.01,N,0.02,K,A*20
$GNVTG,0.00,T,,M,0.01,N,0.02,K,A*20
$GNVTG,0.00,T,,M,0.01,N,0.02,K,A*20
$GNGLL,4714.749158,N,12226.296491,W,225522.000,A,A*51
$GNRMC,225522.000,A,4714.749158,N,12226.296491,W,0.03,0.00,240220,,,A*63
$GNVTG,0.00,T,,M,0.03,N,0.05,K,A*25
$GNVTG,0.00,T,,M,0.03,N,0.05,K,A*25
$GNVTG,0.00,T,,M,0.03,N,0.05,K,A*25
$GNVTG,0.00,T,,M,0.03,N,0.05,K,A*25
$GNVTG,0.00,T,,M,0.03,N,0.05,K,A*25
$GNGLL,4714.749122,N,12226.296425,W,225523.000,A,A*52
$GNRMC,225523.000,A,4714.749122,N,12226.296425,W,0.14,0.00,240220,,,A*66
$GNVTG,0.00,T,,M,0.14,N,0.25,K,A*21
$GNVTG,0.00,T,,M,0.14,N,0.25,K,A*21
$GNVTG,0.00,T,,M,0.14,N,0.25,K,A*21
$GNVTG,0.00,T,,M,0.14,N,0.25,K,A*21
$GNVTG,0.00,T,,M,0.14,N,0.25,K,A*21
$GNGLL,4714.748790,N,12226.296494,W,225524.000,A,A*51
$GNRMC,225524.000,A,4714.748790,N,12226.296494,W,0.21,0.00,240220,,,A*63
$GNVTG,0.00,T,,M,0.21,N,0.39,K,A*2A
$GNVTG,0.00,T,,M,0.21,N,0.39,K,A*2A
$GNVTG,0.00,T,,M,0.21,N,0.39,K,A*2A
$GNVTG,0.00,T,,M,0.21,N,0.39,K,A*2A
$GNGLL,4714.747718,N,12226.297175,W,225525.000,A,A*54
$GNRMC,225525.000,A,4714.747718,N,12226.297175,W,0.29,0.00,240220,,,A*6E
$GNVTG,0.00,T,,M,0.29,N,0.53,K,A*2E
$GNVTG,0.00,T,,M,0.29,N,0.53,K,A*2E
$GNVTG,0.00,T,,M,0.29,N,0.53,K,A*2E
$GNVTG,0.00,T,,M,0.29,N,0.53,K,A*2E
$GNGLL,4714.747194,N,12226.297599,W,225526.000,A,A*53
$GNRMC,225526.000,A,4714.747194,N,12226.297599,W,0.32,0.00,240220,,,A*63
$GNVTG,0.00,T,,M,0.32,N,0.60,K,A*24
$GNVTG,0.00,T,,M,0.32,N,0.60,K,A*24
$GNVTG,0.00,T,,M,0.32,N,0.60,K,A*24
$GNVTG,0.00,T,,M,0.32,N,0.60,K,A*24
$GNVTG,0.00,T,,M,0.32,N,0.60,K,A*24
$GNGLL,4714.746385,N,12226.297894,W,225527.000,A,A*51
$GNRMC,225527.000,A,4714.746385,N,12226.297894,W,0.27,0.00,240220,,,A*65
$GNVTG,0.00,T,,M,0.27,N,0.49,K,A*2B
$GNVTG,0.00,T,,M,0.27,N,0.49,K,A*2B
$GNVTG,0.00,T,,M,0.27,N,0.49,K,A*2B
$GNVTG,0.00,T,,M,0.27,N,0.49,K,A*2B
$GNVTG,0.00,T,,M,0.27,N,0.49,K,A*2B
$GNGLL,4714.746821,N,12226.297581,W,225528.000,A,A*52
$GNRMC,225528.000,A,4714.746821,N,12226.297581,W,0.25,0.00,240220,,,A*64
$GNVTG,0.00,T,,M,0.25,N,0.47,K,A*27
$GNVTG,0.00,T,,M,0.25,N,0.47,K,A*27
$GNVTG,0.00,T,,M,0.25,N,0.47,K,A*27
$GNVTG,0.00,T,,M,0.25,N,0.47,K,A*27
$GNGLL,4714.747291,N,12226.297272,W,225529.000,A,A*58
$GNRMC,225529.000,A,4714.747291,N,12226.297272,W,0.29,0.00,240220,,,A*62
$GNVTG,0.00,T,,M,0.29,N,0.54,K,A*29
$GNVTG,0.00,T,,M,0.29,N,0.54,K,A*29
$GNVTG,0.00,T,,M,0.29,N,0.54,K,A*29
$GNVTG,0.00,T,,M,0.29,N,0.54,K,A*29
$GNGLL,4714.747972,N,12226.296924,W,225530.000,A,A*5F
$GNRMC,225530.000,A,4714.747972,N,12226.296924,W,0.45,0.00,240220,,,A*6F
$GNVTG,0.00,T,,M,0.45,N,0.83,K,A*29
$GNVTG,0.00,T,,M,0.45,N,0.83,K,A*29
$GNVTG,0.00,T,,M,0.45,N,0.83,K,A*29
$GNVTG,0.00,T,,M,0.45,N,0.83,K,A*29
$GNVTG,0.00,T,,M,0.45,N,0.83,K,A*29
$GNGLL,4714.747978,N,12226.297002,W,225531.000,A,A*58
$GNRMC,225531.000,A,4714.747978,N,12226.297002,W,0.32,0.00,240220,,,A*68
$GNVTG,0.00,T,,M,0.32,N,0.60,K,A*24
$GNVTG,0.00,T,,M,0.32,N,0.60,K,A*24
$GNVTG,0.00,T,,M,0.32,N,0.60,K,A*24
$GNVTG,0.00,T,,M,0.32,N,0.60,K,A*24
$GNVTG,0.00,T,,M,0.32,N,0.60,K,A*24
$GNGLL,4714.747768,N,12226.297315,W,225532.000,A,A*51
$GNRMC,225532.000,A,4714.747768,N,12226.297315,W,0.52,0.00,240220,,,A*67
$GNVTG,0.00,T,,M,0.52,N,0.96,K,A*2B
$GNVTG,0.00,T,,M,0.52,N,0.96,K,A*2B
$GNVTG,0.00,T,,M,0.52,N,0.96,K,A*2B
$GNVTG,0.00,T,,M,0.52,N,0.96,K,A*2B
$GNVTG,0.00,T,,M,0.52,N,0.96,K,A*2B
$GNGLL,4714.747676,N,12226.297537,W,225533.000,A,A*58
$GNRMC,225533.000,A,4714.747676,N,12226.297537,W,0.12,0.00,240220,,,A*6A
$GNVTG,0.00,T,,M,0.12,N,0.22,K,A*20
$GNVTG,0.00,T,,M,0.12,N,0.22,K,A*20
$GNVTG,0.00,T,,M,0.12,N,0.22,K,A*20
$GNVTG,0.00,T,,M,0.12,N,0.22,K,A*20
$GNGLL,4714.747708,N,12226.297465,W,225534.000,A,A*51
$GNRMC,225534.000,A,4714.747708,N,12226.297465,W,0.44,0.00,240220,,,A*60
$GNVTG,0.00,T,,M,0.44,N,0.82,K,A*29
$GNVTG,0.00,T,,M,0.44,N,0.82,K,A*29
$GNVTG,0.00,T,,M,0.44,N,0.82,K,A*29
$GNVTG,0.00,T,,M,0.44,N,0.82,K,A*29
$GNGLL,4714.747790,N,12226.297461,W,225535.000,A,A*55
$GNRMC,225535.000,A,4714.747790,N,12226.297461,W,0.41,0.00,240220,,,A*61
$GNVTG,0.00,T,,M,0.41,N,0.76,K,A*27
$GNVTG,0.00,T,,M,0.41,N,0.76,K,A*27
$GNVTG,0.00,T,,M,0.41,N,0.76,K,A*27
$GNVTG,0.00,T,,M,0.41,N,0.76,K,A*27
$GNVTG,0.00,T,,M,0.41,N,0.76,K,A*27
$GNGLL,4714.747745,N,12226.297588,W,225536.000,A,A*58
$GNRMC,225536.000,A,4714.747745,N,12226.297588,W,0.39,0.00,240220,,,A*63
$GNVTG,0.00,T,,M,0.39,N,0.71,K,A*2F
$GNVTG,0.00,T,,M,0.39,N,0.71,K,A*2F
$GNVTG,0.00,T,,M,0.39,N,0.71,K,A*2F
$GNVTG,0.00,T,,M,0.39,N,0.71,K,A*2F
$GNVTG,0.00,T,,M,0.39,N,0.71,K,A*2F
$GNGLL,4714.747765,N,12226.297772,W,225537.000,A,A*5C
$GNRMC,225537.000,A,4714.747765,N,12226.297772,W,0.16,0.00,240220,,,A*6A
$GNVTG,0.00,T,,M,0.16,N,0.30,K,A*27
$GNVTG,0.00,T,,M,0.16,N,0.30,K,A*27
$GNVTG,0.00,T,,M,0.16,N,0.30,K,A*27
$GNVTG,0.00,T,,M,0.16,N,0.30,K,A*27
$GNGLL,4714.747713,N,12226.298127,W,225538.000,A,A*5B
$GNRMC,225538.000,A,4714.747713,N,12226.298127,W,0.38,0.00,240220,,,A*61
$GNVTG,0.00,T,,M,0.38,N,0.70,K,A*2F
$GNVTG,0.00,T,,M,0.38,N,0.70,K,A*2F
$GNVTG,0.00,T,,M,0.38,N,0.70,K,A*2F
$GNVTG,0.00,T,,M,0.38,N,0.70,K,A*2F
$GNGLL,4714.747350,N,12226.298513,W,225539.000,A,A*5A
$GNRMC,225539.000,A,4714.747350,N,12226.298513,W,0.46,0.00,240220,,,A*69
$GNVTG,0.00,T,,M,0.46,N,0.86,K,A*2F
$GNVTG,0.00,T,,M,0.46,N,0.86,K,A*2F
$GNVTG,0.00,T,,M,0.46,N,0.86,K,A*2F
$GNVTG,0.00,T,,M,0.46,N,0.86,K,A*2F
$GNVTG,0.00,T,,M,0.46,N,0.86,K,A*2F
$GNGLL,4714.747190,N,12226.298719,W,225540.000,A,A*52
$GNRMC,225540.000,A,4714.747190,N,12226.298719,W,0.39,0.00,240220,,,A*69
$GNVTG,0.00,T,,M,0.39,N,0.72,K,A*2C
$GNVTG,0.00,T,,M,0.39,N,0.72,K,A*2C
$GNVTG,0.00,T,,M,0.39,N,0.72,K,A*2C
$GNVTG,0.00,T,,M,0.39,N,0.72,K,A*2C
$GNVTG,0.00,T,,M,0.39,N,0.72,K,A*2C
$GNGLL,4714.746940,N,12226.298810,W,225541.000,A,A*51
$GNRMC,225541.000,A,4714.746940,N,12226.298810,W,0.47,0.00,240220,,,A*63
$GNVTG,0.00,T,,M,0.47,N,0.88,K,A*20
$GNVTG,0.00,T,,M,0.47,N,0.88,K,A*20
$GNVTG,0.00,T,,M,0.47,N,0.88,K,A*20
$GNVTG,0.00,T,,M,0.47,N,0.88,K,A*20
$GNVTG,0.00,T,,M,0.47,N,0.88,K,A*20
$GNGLL,4714.746577,N,12226.298798,W,225542.000,A,A*55
$GNRMC,225542.000,A,4714.746577,N,12226.298798,W,0.60,0.00,240220,,,A*62
$GNVTG,0.00,T,,M,0.60,N,1.10,K,A*25
$GNVTG,0.00,T,,M,0.60,N,1.10,K,A*25
$GNVTG,0.00,T,,M,0.60,N,1.10,K,A*25
$GNVTG,0.00,T,,M,0.60,N,1.10,K,A*25
$GNGLL,4714.746618,N,12226.298583,W,225543.000,A,A*56
$GNRMC,225543.000,A,4714.746618,N,12226.298583,W,0.29,0.00,240220,,,A*6C
$GNVTG,0.00,T,,M,0.29,N,0.54,K,A*29
$GNVTG,0.00,T,,M,0.29,N,0.54,K,A*29
$GNVTG,0.00,T,,M,0.29,N,0.54,K,A*29
$GNVTG,0.00,T,,M,0.29,N,0.54,K,A*29
$GNGLL,4714.746627,N,12226.298450,W,225544.000,A,A*52
$GNRMC,225544.000,A,4714.746627,N,12226.298450,W,0.31,0.00,240220,,,A*61
$GNVTG,0.00,T,,M,0.31,N,0.58,K,A*2C
$GNVTG,0.00,T,,M,0.31,N,0.58,K,A*2C
$GNVTG,0.00,T,,M,0.31,N,0.58,K,A*2C
$GNVTG,0.00,T,,M,0.31,N,0.58,K,A*2C
$GNVTG,0.00,T,,M,0.31,N,0.58,K,A*2C
$GNGLL,4714.746717,N,12226.298378,W,225545.000,A,A*5C
$GNRMC,225545.000,A,4714.746717,N,12226.298378,W,0.34,0.00,240220,,,A*6A
$GNVTG,0.00,T,,M,0.34,N,0.64,K,A*26
$GNVTG,0.00,T,,M,0.34,N,0.64,K,A*26
$GNVTG,0.00,T,,M,0.34,N,0.64,K,A*26
$GNVTG,0.00,T,,M,0.34,N,0.64,K,A*26
$GNVTG,0.00,T,,M,0.34,N,0.64,K,A*26
$GNGLL,4714.746666,N,12226.298359,W,225546.000,A,A*5B
$GNRMC,225546.000,A,4714.746666,N,12226.298359,W,0.16,0.00,240220,,,A*6D
$GNVTG,0.00,T,,M,0.16,N,0.30,K,A*27
$GNVTG,0.00,T,,M,0.16,N,0.30,K,A*27
$GNVTG,0.00,T,,M,0.16,N,0.30,K,A*27
$GNVTG,0.00,T,,M,0.16,N,0.30,K,A*27
$GNVTG,0.00,T,,M,0.16,N,0.30,K,A*27
$GNGLL,4714.746187,N,12226.298288,W,225547.000,A,A*5F
$GNRMC,225547.000,A,4714.746187,N,12226.298288,W,0.80,0.00,240220,,,A*66
$GNVTG,0.00,T,,M,0.80,N,1.48,K,A*26
$GNVTG,0.00,T,,M,0.80,N,1.48,K,A*26
$GNVTG,0.00,T,,M,0.80,N,1.48,K,A*26
$GNVTG,0.00,T,,M,0.80,N,1.48,K,A*26
$GNGLL,4714.745748,N,12226.298213,W,225548.000,A,A*54
$GNRMC,225548.000,A,4714.745748,N,12226.298213,W,0.87,0.00,240220,,,A*6A
$GNVTG,0.00,T,,M,0.87,N,1.61,K,A*2A
$GNVTG,0.00,T,,M,0.87,N,1.61,K,A*2A
$GNVTG,0.00,T,,M,0.87,N,1.61,K,A*2A
$GNVTG,0.00,T,,M,0.87,N,1.61,K,A*2A
$GNVTG,0.00,T,,M,0.87,N,1.61,K,A*2A
$GNGLL,4714.745439,N,12226.298150,W,225549.000,A,A*54
$GNRMC,225549.000,A,4714.745439,N,12226.298150,W,0.33,0.00,240220,,,A*65
$GNVTG,0.00,T,,M,0.33,N,0.62,K,A*27
$GNVTG,0.00,T,,M,0.33,N,0.62,K,A*27
$GNVTG,0.00,T,,M,0.33,N,0.62,K,A*27
$GNVTG,0.00,T,,M,0.33,N,0.62,K,A*27
$GNVTG,0.00,T,,M,0.33,N,0.62,K,A*27
$GNGLL,4714.745423,N,12226.298067,W,225550.000,A,A*52
$GNRMC,225550.000,A,4714.745423,N,12226.298067,W,0.28,0.00,240220,,,A*69
$GNVTG,0.00,T,,M,0.28,N,0.52,K,A*2E
$GNVTG,0.00,T,,M,0.28,N,0.52,K,A*2E
$GNVTG,0.00,T,,M,0.28,N,0.52,K,A*2E
$GNVTG,0.00,T,,M,0.28,N,0.52,K,A*2E
$GNVTG,0.00,T,,M,0.28,N,0.52,K,A*2E
$GNGLL,4714.745334,N,12226.297970,W,225551.000,A,A*52
$GNRMC,225551.000,A,4714.745334,N,12226.297970,W,0.28,0.00,240220,,,A*69
$GNVTG,0.00,T,,M,0.28,N,0.51,K,A*2D
$GNVTG,0.00,T,,M,0.28,N,0.51,K,A*2D
$GNVTG,0.00,T,,M,0.28,N,0.51,K,A*2D
$GNVTG,0.00,T,,M,0.28,N,0.51,K,A*2D
$GNGLL,4714.745310,N,12226.297874,W,225552.000,A,A*52
$GNRMC,225552.000,A,4714.745310,N,12226.297874,W,0.35,0.00,240220,,,A*65
$GNVTG,0.00,T,,M,0.35,N,0.65,K,A*26
$GNVTG,0.00,T,,M,0.35,N,0.65,K,A*26
$GNVTG,0.00,T,,M,0.35,N,0.65,K,A*26
$GNVTG,0.00,T,,M,0.35,N,0.65,K,A*26
$GNGLL,4714.744994,N,12226.297918,W,225553.000,A,A*5F
$GNRMC,225553.000,A,4714.744994,N,12226.297918,W,0.51,0.00,240220,,,A*6A
$GNVTG,0.00,T,,M,0.51,N,0.95,K,A*2B
$GNVTG,0.00,T,,M,0.51,N,0.95,K,A*2B
$GNVTG,0.00,T,,M,0.51,N,0.95,K,A*2B
$GNVTG,0.00,T,,M,0.51,N,0.95,K,A*2B
$GNVTG,0.00,T,,M,0.51,N,0.95,K,A*2B
$GNGLL,4714.745198,N,12226.297855,W,225554.000,A,A*55
$GNRMC,225554.000,A,4714.745198,N,12226.297855,W,0.23,0.00,240220,,,A*65
$GNVTG,0.00,T,,M,0.23,N,0.43,K,A*25
$GNVTG,0.00,T,,M,0.23,N,0.43,K,A*25
$GNVTG,0.00,T,,M,0.23,N,0.43,K,A*25
$GNVTG,0.00,T,,M,0.23,N,0.43,K,A*25
$GNVTG,0.00,T,,M,0.23,N,0.43,K,A*25
$GNGLL,4714.745654,N,12226.297615,W,225555.000,A,A*59
$GNRMC,225555.000,A,4714.745654,N,12226.297615,W,0.81,18.34,240220,,,A*5F
$GNVTG,18.34,T,,M,0.81,N,1.50,K,A*10
$GNVTG,18.34,T,,M,0.81,N,1.50,K,A*10
$GNVTG,18.34,T,,M,0.81,N,1.50,K,A*10
$GNVTG,18.34,T,,M,0.81,N,1.50,K,A*10
$GNGLL,4714.745851,N,12226.297553,W,225556.000,A,A*50
$GNRMC,225556.000,A,4714.745851,N,12226.297553,W,0.46,18.34,240220,,,A*5D
$GNVTG,18.34,T,,M,0.46,N,0.86,K,A*11
$GNVTG,18.34,T,,M,0.46,N,0.86,K,A*11
$GNVTG,18.34,T,,M,0.46,N,0.86,K,A*11
$GNVTG,18.34,T,,M,0.46,N,0.86,K,A*11
$GNGLL,4714.745939,N,12226.297476,W,225557.000,A,A*58
$GNRMC,225557.000,A,4714.745939,N,12226.297476,W,0.12,18.34,240220,,,A*54
$GNVTG,18.34,T,,M,0.12,N,0.23,K,A*1F
$GNVTG,18.34,T,,M,0.12,N,0.23,K,A*1F
$GNVTG,18.34,T,,M,0.12,N,0.23,K,A*1F
$GNVTG,18.34,T,,M,0.12,N,0.23,K,A*1F
$GNVTG,18.34,T,,M,0.12,N,0.23,K,A*1F
$GNGLL,4714.746189,N,12226.297396,W,225558.000,A,A*5E
$GNRMC,225558.000,A,4714.746189,N,12226.297396,W,0.16,18.34,240220,,,A*56
$GNVTG,18.34,T,,M,0.16,N,0.30,K,A*19
$GNVTG,18.34,T,,M,0.16,N,0.30,K,A*19
$GNVTG,18.34,T,,M,0.16,N,0.30,K,A*19
$GNVTG,18.34,T,,M,0.16,N,0.30,K,A*19
$GNVTG,18.34,T,,M,0.16,N,0.30,K,A*19
$GNGLL,4714.746471,N,12226.297322,W,225559.000,A,A*52
$GNRMC,225559.000,A,4714.746471,N,12226.297322,W,0.37,18.34,240220,,,A*59
$GNVTG,18.34,T,,M,0.37,N,0.69,K,A*16
$GNVTG,18.34,T,,M,0.37,N,0.69,K,A*16
$GNVTG,18.34,T,,M,0.37,N,0.69,K,A*16
